{
  "cities": [
    {
      "cityName": "Lisbon",
      "country": "Portugal",
      "emoji": "ðŸ‡µðŸ‡¹",
      "date": "2027-10-31T15:59:59.138Z",
      "notes": "My favorite city so far!",
      "position": {
        "lat": 38.727881642324164,
        "lng": -9.140900099907554
      },
      "id": 73930385
    },
    {
      "cityName": "Madrid",
      "country": "Spain",
      "emoji": "ðŸ‡ªðŸ‡¸",
      "date": "2027-07-15T08:22:53.976Z",
      "notes": "",
      "position": {
        "lat": 40.46635901755316,
        "lng": -3.7133789062500004
      },
      "id": 17806751
    },
    {
      "cityName": "Berlin",
      "country": "Germany",
      "emoji": "ðŸ‡©ðŸ‡ª",
      "date": "2027-02-12T09:24:11.863Z",
      "notes": "Amazing ðŸ˜ƒ",
      "position": {
        "lat": 52.53586782505711,
        "lng": 13.376933665713324
      },
      "id": 98443197
    },
    {
      "cityName": "Almassora",
      "country": "Spain",
      "emoji": "ðŸ‡ªðŸ‡¸",
      "date": "2024-02-25T18:49:59.031Z",
      "notes": "hhhhhh",
      "position": {
        "lat": "39.97767200106886",
        "lng": "-0.11501312255859376"
      },
      "id": 98443198
    },
    {
      "cityName": "Almassora",
      "country": "Spain",
      "emoji": "ðŸ‡ªðŸ‡¸",
      "date": "2024-02-25T18:49:59.031Z",
      "notes": "hhhhhh",
      "position": {
        "lat": "39.97767200106886",
        "lng": "-0.11501312255859376"
      },
      "id": 98443199
    },
    {
      "cityName": "Onda",
      "country": "Spain",
      "emoji": "ðŸ‡ªðŸ‡¸",
      "date": "2024-02-25T18:54:02.720Z",
      "notes": "sds",
      "position": {
        "lat": "39.98069201240256",
        "lng": "-0.14625549316406253"
      },
      "id": 98443200
    },
    {
      "cityName": "Onda",
      "country": "Spain",
      "emoji": "ðŸ‡ªðŸ‡¸",
      "date": "2024-02-25T18:54:27.029Z",
      "notes": "sd",
      "position": {
        "lat": "39.98069201240256",
        "lng": "-0.14625549316406253"
      },
      "id": 98443201
    },
    {
      "cityName": "Ocana",
      "country": "Spain",
      "emoji": "ðŸ‡ªðŸ‡¸",
      "date": "2024-02-25T18:57:20.340Z",
      "notes": "sd",
      "position": {
        "lat": "39.958631333372246",
        "lng": "-3.4689331054687504"
      },
      "id": 98443202
    },
    {
      "cityName": "Castello de la Plana",
      "country": "Spain",
      "emoji": "ðŸ‡ªðŸ‡¸",
      "date": "2024-02-25T18:59:47.563Z",
      "notes": "sdd",
      "position": {
        "lat": "39.98661977590957",
        "lng": "-0.029869079589843753"
      },
      "id": 98443203
    },
    {
      "cityName": "Calgary",
      "country": "Canada",
      "emoji": "ðŸ‡¨ðŸ‡¦",
      "date": "2024-02-25T18:59:55.837Z",
      "notes": "home",
      "position": {
        "lat": "51.031979926480844",
        "lng": "-114.06761169433595"
      },
      "id": 98443204
    }
  ]
}